[{"id": "1", "name": "備前橋跡", "latitude": "35.6665734", "longitude": "139.7734373", "river": "築地川南支川"}, {"id": "2", "name": "門跡橋親柱", "latitude": "35.6653767", "longitude": "139.771763", "river": "築地川南支川"}, {"id": "3", "name": "小田原橋跡", "latitude": "35.6642455", "longitude": "139.7708349", "river": "築地川南支川"}, {"id": "4", "name": "青山学院記念の地碑(旧海岸女学校跡)", "latitude": "35.6686945", "longitude": "139.7787597", "river": "鉄砲洲川"}, {"id": "5", "name": "女子聖学院発祥の地碑", "latitude": "35.6683507", "longitude": "139.7786916", "river": "鉄砲洲川"}, {"id": "6", "name": "明治学院発祥の地碑", "latitude": "35.667846", "longitude": "139.7785079", "river": "鉄砲洲川"}, {"id": "7", "name": "指紋研究発祥の地", "latitude": "35.6674766", "longitude": "139.778258", "river": "鉄砲洲川"}, {"id": "8", "name": "湊第一児童遊園", "latitude": "35.6702289", "longitude": "139.780962", "river": "鉄砲洲川"}, {"id": "9", "name": "新湊橋跡", "latitude": "35.6666029", "longitude": "139.7777567", "river": "鉄砲洲川"}, {"id": "10", "name": "浦堀橋跡", "latitude": "35.6676427", "longitude": "139.7781995", "river": "鉄砲洲川"}, {"id": "11", "name": "見当橋跡", "latitude": "35.6692644", "longitude": "139.7787319", "river": "鉄砲洲川"}, {"id": "12", "name": "小橋跡", "latitude": "35.6703809", "longitude": "139.780362", "river": "鉄砲洲川"}, {"id": "13", "name": "鉄砲洲橋跡", "latitude": "35.6702484", "longitude": "139.7808307", "river": "鉄砲洲川"}, {"id": "14", "name": "海軍兵学寮・海軍軍医学校跡碑", "latitude": "35.6665636", "longitude": "139.7676919", "river": "築地川東支川"}, {"id": "15", "name": "北門橋跡", "latitude": "35.6668151", "longitude": "139.7680865", "river": "築地川東支川"}, {"id": "16", "name": "東京盲唖学校発祥の地 日本点字制定の地", "latitude": "35.6659967", "longitude": "139.7686072", "river": "築地川東支川"}, {"id": "17", "name": "市場橋公園", "latitude": "35.6589664", "longitude": "139.7685902", "river": "築地川東支川"}, {"id": "18", "name": "海幸橋碑", "latitude": "35.6635275", "longitude": "139.7713431", "river": "築地川東支川"}, {"id": "19", "name": "波除神社", "latitude": "35.6635186", "longitude": "139.7715677", "river": "築地川東支川"}, {"id": "20", "name": "軍艦操練所跡", "latitude": "35.6643698", "longitude": "139.7726131", "river": "築地川東支川"}, {"id": "21", "name": "ミズノプリンティングミュージアム", "latitude": "35.6715302", "longitude": "139.7775488", "river": "入船川"}, {"id": "22", "name": "靴業発祥の地碑", "latitude": "35.6707514", "longitude": "139.7758918", "river": "入船川"}, {"id": "23", "name": "入船橋", "latitude": "35.6700237", "longitude": "139.774731", "river": "入船川"}, {"id": "24", "name": "佃島渡船場跡之碑", "latitude": "35.6688742", "longitude": "139.7802918", "river": "入船川"}, {"id": "25", "name": "南新富橋跡", "latitude": "35.6704052", "longitude": "139.7746771", "river": "入船川"}, {"id": "26", "name": "新富座跡", "latitude": "35.671479", "longitude": "139.773627", "river": "入船川"}, {"id": "27", "name": "新富橋跡", "latitude": "35.6715586", "longitude": "139.7751289", "river": "入船川"}, {"id": "28", "name": "船見橋跡", "latitude": "35.6721426", "longitude": "139.7753327", "river": "入船川"}, {"id": "29", "name": "新船見橋跡", "latitude": "35.6734063", "longitude": "139.7757297", "river": "入船川"}, {"id": "30", "name": "本の森ちゅうおう（中央区立京橋図書館・中央区立郷土資料館）", "latitude": "35.6737214", "longitude": "139.7759984", "river": "入船川"}, {"id": "31", "name": "新富稲荷神社", "latitude": "35.6710054", "longitude": "139.7743065", "river": "入船川"}, {"id": "32", "name": "越前堀児童公園", "latitude": "35.6764055", "longitude": "139.7824176", "river": "越前堀"}, {"id": "33", "name": "越前堀の間知石", "latitude": "35.6735077", "longitude": "139.7829085", "river": "越前堀"}, {"id": "34", "name": "新川一ノ橋跡", "latitude": "35.6782182", "longitude": "139.7817812", "river": "新川"}, {"id": "35", "name": "中央区立新川公園", "latitude": "35.6745539", "longitude": "139.7857472", "river": "新川"}, {"id": "36", "name": "新川二ノ橋跡", "latitude": "35.6768192", "longitude": "139.783774", "river": "新川"}, {"id": "37", "name": "新川三ノ橋跡", "latitude": "35.6757009", "longitude": "139.785881", "river": "新川"}, {"id": "38", "name": "新川の跡碑", "latitude": "35.6756683", "longitude": "139.785914", "river": "新川"}, {"id": "39", "name": "河村瑞賢屋敷跡", "latitude": "35.678463", "longitude": "139.7825451", "river": "新川"}, {"id": "40", "name": "伊勢町掘跡（西堀留川跡）", "latitude": "35.6850313", "longitude": "139.7782708", "river": "西堀留川"}, {"id": "41", "name": "富士銀行創業の地", "latitude": "35.685161", "longitude": "139.7790078", "river": "西堀留川"}, {"id": "42", "name": "常盤稲荷神社", "latitude": "35.6891568", "longitude": "139.7783469", "river": "西堀留川"}, {"id": "43", "name": "伊場仙浮世絵ミュージアム", "latitude": "35.687438", "longitude": "139.7772379", "river": "西堀留川"}, {"id": "44", "name": "荒布橋跡", "latitude": "35.684894", "longitude": "139.7782388", "river": "西堀留川"}, {"id": "45", "name": "中之橋跡", "latitude": "35.6870123", "longitude": "139.7773428", "river": "西堀留川"}, {"id": "46", "name": "道浄橋跡", "latitude": "35.6877562", "longitude": "139.7766306", "river": "西堀留川"}, {"id": "47", "name": "雲母橋跡", "latitude": "35.6872856", "longitude": "139.7751661", "river": "西堀留川"}, {"id": "48", "name": "小網神社", "latitude": "35.6841165", "longitude": "139.780462", "river": "東堀留川"}, {"id": "49", "name": "中央区立堀留児童公園", "latitude": "35.6868731", "longitude": "139.7792119", "river": "東堀留川"}, {"id": "50", "name": "小網町児童遊園", "latitude": "35.6837482", "longitude": "139.7798928", "river": "東堀留川"}, {"id": "51", "name": "お親父橋 口入屋跡", "latitude": "35.6850929", "longitude": "139.7801164", "river": "東堀留川"}, {"id": "52", "name": "萬橋跡", "latitude": "35.6874022", "longitude": "139.7789117", "river": "東堀留川"}, {"id": "53", "name": "思案橋跡", "latitude": "35.683751", "longitude": "139.7798589", "river": "東堀留川"}, {"id": "54", "name": "小伝馬町牢屋敷展示館", "latitude": "35.6908135", "longitude": "139.7774069", "river": "竜閑川"}, {"id": "55", "name": "小津史料館", "latitude": "35.6888031", "longitude": "139.7763082", "river": "竜閑川"}, {"id": "56", "name": "江戸屋所蔵刷毛ブラシ展示館", "latitude": "35.6892378", "longitude": "139.7779382", "river": "竜閑川"}, {"id": "57", "name": "中央区立 龍閑児童遊園", "latitude": "35.6930986", "longitude": "139.779905", "river": "竜閑川"}, {"id": "58", "name": "地蔵橋公園", "latitude": "35.6907534", "longitude": "139.7747857", "river": "竜閑川"}, {"id": "59", "name": "九道橋跡（龍閑川）", "latitude": "35.6918643", "longitude": "139.7776094", "river": "竜閑川"}, {"id": "60", "name": "今川橋跡碑", "latitude": "35.6900242", "longitude": "139.7719571", "river": "竜閑川"}, {"id": "61", "name": "西中ノ橋跡", "latitude": "35.6896009", "longitude": "139.7710644", "river": "竜閑川"}, {"id": "62", "name": "龍閑橋親柱・橋桁", "latitude": "35.6888773", "longitude": "139.7690677", "river": "竜閑川"}, {"id": "63", "name": "東中ノ橋跡", "latitude": "35.690514", "longitude": "139.7738232", "river": "竜閑川"}, {"id": "64", "name": "両社稲荷神社", "latitude": "35.6903577", "longitude": "139.7735906", "river": "竜閑川"}, {"id": "65", "name": "正一位福田稲荷神社(伏見稲荷大社の分霊)", "latitude": "35.6906476", "longitude": "139.7744738", "river": "竜閑川"}, {"id": "66", "name": "竹森神社", "latitude": "35.6930014", "longitude": "139.7799395", "river": "浜町川"}, {"id": "67", "name": "竹森橋跡（浜町川）", "latitude": "35.6928299", "longitude": "139.7802906", "river": "浜町川"}, {"id": "68", "name": "橋本橋跡（浜町川）", "latitude": "35.693319", "longitude": "139.779784", "river": "浜町川"}, {"id": "69", "name": "鞍掛橋跡", "latitude": "35.6921736", "longitude": "139.780894", "river": "浜町川"}, {"id": "70", "name": "緑橋跡", "latitude": "35.6917399", "longitude": "139.7810606", "river": "浜町川"}, {"id": "71", "name": "久松児童公園", "latitude": "35.6884725", "longitude": "139.784186", "river": "浜町川"}, {"id": "72", "name": "小川橋跡（浜町川）", "latitude": "35.6878908", "longitude": "139.7846465", "river": "浜町川"}, {"id": "73", "name": "小川橋の由来碑", "latitude": "35.6879148", "longitude": "139.7846296", "river": "浜町川"}, {"id": "74", "name": "イチマス田源・きものクリニック＆呉服問屋ミュージアム", "latitude": "35.6890189", "longitude": "139.7804544", "river": "浜町川"}, {"id": "75", "name": "江戸東京組紐 龍工房体験展示館", "latitude": "35.6878413", "longitude": "139.7829657", "river": "浜町川"}, {"id": "76", "name": "高砂橋跡", "latitude": "35.6882126", "longitude": "139.7844049", "river": "浜町川"}, {"id": "77", "name": "久松橋跡", "latitude": "35.6873661", "longitude": "139.7851779", "river": "浜町川"}, {"id": "78", "name": "明治座", "latitude": "35.687902", "longitude": "139.786976", "river": "浜町川"}, {"id": "79", "name": "染物展示館・虎の檻", "latitude": "35.687258", "longitude": "139.7885538", "river": "浜町川"}, {"id": "80", "name": "江戸表具展示館", "latitude": "35.6866391", "longitude": "139.788804", "river": "浜町川"}, {"id": "81", "name": "常盤会 -久松邸跡-", "latitude": "35.6853463", "longitude": "139.7873719", "river": "浜町川"}, {"id": "82", "name": "ナウマンゾウの化石「浜町標本」発掘の地", "latitude": "35.6879015", "longitude": "139.7880474", "river": "浜町川"}, {"id": "83", "name": "蛎浜橋跡（浜町川）", "latitude": "35.6866188", "longitude": "139.7859439", "river": "浜町川"}, {"id": "84", "name": "勧進帳の弁慶像", "latitude": "35.6865281", "longitude": "139.7860163", "river": "浜町川"}, {"id": "85", "name": "川口橋跡", "latitude": "35.68298", "longitude": "139.7885928", "river": "浜町川"}, {"id": "86", "name": "真砂座跡", "latitude": "35.6826047", "longitude": "139.789807", "river": "浜町川"}, {"id": "87", "name": "中央区立あやめ第一公園", "latitude": "35.6840184", "longitude": "139.7904401", "river": "箱崎川"}, {"id": "88", "name": "蛎殻町公園", "latitude": "35.6832679", "longitude": "139.7870957", "river": "箱崎川"}, {"id": "89", "name": "金刀比羅宮", "latitude": "35.6836189", "longitude": "139.7902272", "river": "箱崎川"}, {"id": "90", "name": "磐城平藩上屋敷跡", "latitude": "35.6839245", "longitude": "139.7897229", "river": "箱崎川"}, {"id": "91", "name": "女橋跡", "latitude": "35.682938", "longitude": "139.7888168", "river": "箱崎川"}, {"id": "92", "name": "三菱倉庫・江戸橋 歴史展示ギャラリー", "latitude": "35.6837314", "longitude": "139.777664", "river": "箱崎川"}, {"id": "93", "name": "箱崎町箱四町会神輿庫", "latitude": "35.6803629", "longitude": "139.7869447", "river": "箱崎川"}, {"id": "94", "name": "土州橋跡", "latitude": "35.6814557", "longitude": "139.7863683", "river": "箱崎川"}, {"id": "95", "name": "正一位永久稲荷神社", "latitude": "35.6809795", "longitude": "139.7857653", "river": "箱崎川"}, {"id": "96", "name": "新永久橋跡", "latitude": "35.6810274", "longitude": "139.7850322", "river": "箱崎川"}, {"id": "97", "name": "箱崎川第一公園", "latitude": "35.6797004", "longitude": "139.7831685", "river": "箱崎川"}, {"id": "98", "name": "箱崎橋跡", "latitude": "35.6800326", "longitude": "139.7828576", "river": "箱崎川"}, {"id": "99", "name": "箱崎ポンプ所", "latitude": "35.6819156", "longitude": "139.7894127", "river": "箱崎川"}, {"id": "100", "name": "菖蒲橋跡", "latitude": "35.68369722", "longitude": "139.7899167", "river": "箱崎川"}, {"id": "101", "name": "行徳河岸", "latitude": "35.6804846", "longitude": "139.7832977", "river": "箱崎川"}, {"id": "102", "name": "自動電話交換発祥の地", "latitude": "35.6736929", "longitude": "139.7717556", "river": "京橋川"}, {"id": "103", "name": "白魚橋跡", "latitude": "35.6743158", "longitude": "139.7711614", "river": "京橋川"}, {"id": "104", "name": "三年橋跡（京橋川）", "latitude": "35.6745911", "longitude": "139.7704655", "river": "京橋川"}, {"id": "105", "name": "京橋の碑", "latitude": "35.675182", "longitude": "139.7693016", "river": "京橋川"}, {"id": "106", "name": "煉瓦銀座之碑とガス灯", "latitude": "35.6749385", "longitude": "139.7691735", "river": "京橋川"}, {"id": "107", "name": "京橋川の護岸", "latitude": "35.6753326", "longitude": "139.7689552", "river": "京橋川"}, {"id": "108", "name": "ポリスミュージアム 警察博物館", "latitude": "35.6751199", "longitude": "139.7695409", "river": "京橋川"}, {"id": "109", "name": "京橋", "latitude": "35.6750818", "longitude": "139.7690828", "river": "京橋川"}, {"id": "110", "name": "奥野ビル（旧銀座アパートメント）", "latitude": "35.6737703", "longitude": "139.7688513", "river": "三十間堀川"}, {"id": "111", "name": "水谷橋跡", "latitude": "35.6742032", "longitude": "139.7697905", "river": "三十間堀川"}, {"id": "112", "name": "水谷橋公園", "latitude": "35.6743346", "longitude": "139.7698661", "river": "三十間堀川"}, {"id": "113", "name": "朝日稲荷神社", "latitude": "35.6714438", "longitude": "139.7671927", "river": "三十間堀川"}, {"id": "114", "name": "三原橋街角広場", "latitude": "35.6700716", "longitude": "139.7661111", "river": "三十間堀川"}, {"id": "115", "name": "紀井國橋跡", "latitude": "35.67311111", "longitude": "139.7688056", "river": "三十間堀川"}, {"id": "116", "name": "豊玉橋跡", "latitude": "35.672122", "longitude": "139.7680161", "river": "三十間堀川"}, {"id": "117", "name": "朝日橋跡", "latitude": "35.6711155", "longitude": "139.7672105", "river": "三十間堀川"}, {"id": "118", "name": "三原橋跡", "latitude": "35.67025", "longitude": "139.7663056", "river": "三十間堀川"}, {"id": "119", "name": "木挽橋跡", "latitude": "35.66944444", "longitude": "139.7652778", "river": "三十間堀川"}, {"id": "120", "name": "賑橋跡", "latitude": "35.6686449", "longitude": "139.7642169", "river": "三十間堀川"}, {"id": "121", "name": "出雲橋跡", "latitude": "35.6678395", "longitude": "139.7631556", "river": "三十間堀川"}, {"id": "122", "name": "八通八橋跡", "latitude": "35.66719444", "longitude": "139.7623333", "river": "三十間堀川"}, {"id": "123", "name": "真福寺橋跡", "latitude": "35.67347222", "longitude": "139.7720278", "river": "三十間堀川"}, {"id": "124", "name": "三つ橋跡", "latitude": "35.6735989", "longitude": "139.7719601", "river": "三十間堀川"}, {"id": "125", "name": "芝口御門跡", "latitude": "35.6675091", "longitude": "139.7618196", "river": "汐留川"}, {"id": "126", "name": "蓬莱橋跡", "latitude": "35.666575", "longitude": "139.7626191", "river": "汐留川"}, {"id": "127", "name": "浜離宮前踏切跡", "latitude": "35.66465", "longitude": "139.763631", "river": "汐留川"}, {"id": "128", "name": "大手門橋", "latitude": "35.6632887", "longitude": "139.7634446", "river": "汐留川"}, {"id": "129", "name": "土橋跡", "latitude": "35.668222", "longitude": "139.758802", "river": "汐留川"}, {"id": "130", "name": "難波橋跡", "latitude": "35.66794444", "longitude": "139.7597222", "river": "汐留川"}, {"id": "131", "name": "新橋跡", "latitude": "35.6675", "longitude": "139.7611111", "river": "汐留川"}, {"id": "132", "name": "新橋跡の親柱", "latitude": "35.6672784", "longitude": "139.761209", "river": "汐留川"}, {"id": "133", "name": "銀座の柳碑", "latitude": "35.6672392", "longitude": "139.761147", "river": "汐留川"}, {"id": "134", "name": "検査業務開始の地", "latitude": "35.6649683", "longitude": "139.7635734", "river": "汐留川"}, {"id": "135", "name": "汐先橋跡", "latitude": "35.66444444", "longitude": "139.7633333", "river": "汐留川"}, {"id": "136", "name": "伊達家上屋敷建物礎石", "latitude": "35.6669933", "longitude": "139.7641244", "river": "汐留川"}, {"id": "137", "name": "手水鉢（汐留遺跡）", "latitude": "35.6671799", "longitude": "139.7637573", "river": "汐留川"}, {"id": "138", "name": "旧新橋停車場 鉄道歴史展示室", "latitude": "35.6659777", "longitude": "139.7614685", "river": "汐留川"}, {"id": "139", "name": "0哩標識", "latitude": "35.6657868", "longitude": "139.7614333", "river": "汐留川"}, {"id": "140", "name": "明石橋跡", "latitude": "35.6655011", "longitude": "139.7765395", "river": "築地川"}, {"id": "141", "name": "月島の渡し跡", "latitude": "35.6654591", "longitude": "139.7765389", "river": "築地川"}, {"id": "142", "name": "電信創業之地", "latitude": "35.6654243", "longitude": "139.7767263", "river": "築地川"}, {"id": "143", "name": "中央区立あかつき公園", "latitude": "35.6662569", "longitude": "139.7765548", "river": "築地川"}, {"id": "144", "name": "堺橋跡", "latitude": "35.6669279", "longitude": "139.7742552", "river": "築地川"}, {"id": "145", "name": "暁橋跡", "latitude": "35.6675115", "longitude": "139.7747746", "river": "築地川"}, {"id": "146", "name": "新栄橋跡", "latitude": "35.6666408", "longitude": "139.7756011", "river": "築地川"}, {"id": "147", "name": "築地橋", "latitude": "35.6708757", "longitude": "139.773178", "river": "築地川"}, {"id": "148", "name": "三吉橋", "latitude": "35.6712541", "longitude": "139.7719374", "river": "築地川"}, {"id": "149", "name": "三吉橋の碑", "latitude": "35.6714293", "longitude": "139.7716713", "river": "築地川"}, {"id": "150", "name": "亀井橋", "latitude": "35.6702374", "longitude": "139.7708584", "river": "築地川"}, {"id": "151", "name": "祝橋", "latitude": "35.6692765", "longitude": "139.7698041", "river": "築地川"}, {"id": "152", "name": "萬年橋", "latitude": "35.6683161", "longitude": "139.7684509", "river": "築地川"}, {"id": "153", "name": "名犬チロリ記念碑", "latitude": "35.6685787", "longitude": "139.7687953", "river": "築地川"}, {"id": "154", "name": "采女橋", "latitude": "35.6673186", "longitude": "139.7675957", "river": "築地川"}, {"id": "155", "name": "築地川采女橋公園", "latitude": "35.6673935", "longitude": "139.7672408", "river": "築地川"}, {"id": "156", "name": "松竹大谷図書館", "latitude": "35.668154", "longitude": "139.769481", "river": "築地川"}, {"id": "157", "name": "のれん・提灯・下絵の展示館", "latitude": "35.6649797", "longitude": "139.7729101", "river": "築地川"}, {"id": "158", "name": "新富橋", "latitude": "35.6724364", "longitude": "139.7722835", "river": "築地川"}, {"id": "159", "name": "新金橋", "latitude": "35.6733341", "longitude": "139.772541", "river": "築地川"}, {"id": "160", "name": "銀座インズ1", "latitude": "35.6740082", "longitude": "139.7643419", "river": "外堀川"}, {"id": "161", "name": "銀座ナイン", "latitude": "35.6676963", "longitude": "139.7604668", "river": "外堀川"}, {"id": "162", "name": "鍛冶橋跡", "latitude": "35.6772062", "longitude": "139.7669839", "river": "外堀川"}, {"id": "163", "name": "ヤン・ヨーステン記念碑", "latitude": "35.6793984", "longitude": "139.7714212", "river": "外堀川"}, {"id": "164", "name": "ヤン・ヨーステン記念像", "latitude": "35.6799326", "longitude": "139.768512", "river": "外堀川"}, {"id": "165", "name": "呉服橋門跡", "latitude": "35.6839751", "longitude": "139.7698987", "river": "外堀川"}, {"id": "166", "name": "江戸城外堀跡の石垣", "latitude": "35.6810688", "longitude": "139.7691691", "river": "外堀川"}, {"id": "167", "name": "八重洲橋跡", "latitude": "35.6804395", "longitude": "139.769028", "river": "外堀川"}, {"id": "168", "name": "呉服橋跡", "latitude": "35.6836439", "longitude": "139.7709772", "river": "外堀川"}, {"id": "169", "name": "数寄屋橋公園", "latitude": "35.6726412", "longitude": "139.7623365", "river": "外堀川"}, {"id": "170", "name": "数寄屋橋の碑", "latitude": "35.6727261", "longitude": "139.7625623", "river": "外堀川"}, {"id": "171", "name": "江戸城 数寄屋橋門跡", "latitude": "35.6731003", "longitude": "139.7625413", "river": "外堀川"}, {"id": "172", "name": "数寄屋橋跡", "latitude": "35.6728955", "longitude": "139.7625597", "river": "外堀川"}, {"id": "173", "name": "丸の内橋跡", "latitude": "35.6733661", "longitude": "139.7640348", "river": "外堀川"}, {"id": "174", "name": "新有楽橋", "latitude": "35.6743509", "longitude": "139.7647109", "river": "外堀川"}, {"id": "175", "name": "有楽橋跡", "latitude": "35.6752575", "longitude": "139.7653082", "river": "外堀川"}, {"id": "176", "name": "江戸城 山下橋門跡", "latitude": "35.6721908", "longitude": "139.759998", "river": "外堀川"}, {"id": "177", "name": "山下橋跡", "latitude": "35.6720656", "longitude": "139.7605566", "river": "外堀川"}, {"id": "178", "name": "新幸橋の石碑", "latitude": "35.66951", "longitude": "139.7591434", "river": "外堀川"}, {"id": "179", "name": "新幸橋跡", "latitude": "35.6695313", "longitude": "139.7590573", "river": "外堀川"}, {"id": "180", "name": "鍛冶橋門跡", "latitude": "35.6771466", "longitude": "139.7666558", "river": "外堀川"}, {"id": "181", "name": "京華スクエア", "latitude": "35.6748025", "longitude": "139.7757347", "river": "桜川"}, {"id": "182", "name": "八丁堀の与力・同心組屋敷跡", "latitude": "35.6747729", "longitude": "139.7758985", "river": "桜川"}, {"id": "183", "name": "八丁堀跡（桜川跡）碑", "latitude": "35.6738521", "longitude": "139.777383", "river": "桜川"}, {"id": "184", "name": "稲荷橋碑石", "latitude": "35.6732553", "longitude": "139.7802058", "river": "桜川"}, {"id": "185", "name": "入一地蔵菩薩・入一観音菩薩", "latitude": "35.6735086", "longitude": "139.7767678", "river": "桜川"}, {"id": "186", "name": "中ノ橋北東児童遊園", "latitude": "35.6739492", "longitude": "139.7768464", "river": "桜川"}, {"id": "187", "name": "弾正橋", "latitude": "35.6748887", "longitude": "139.7729215", "river": "桜川"}, {"id": "188", "name": "弾正橋記念碑", "latitude": "35.6867814", "longitude": "139.769265", "river": "桜川"}, {"id": "189", "name": "桜橋ポンプ所", "latitude": "35.6737968", "longitude": "139.7737145", "river": "桜川"}, {"id": "190", "name": "新桜橋跡", "latitude": "35.67383333", "longitude": "139.7731389", "river": "桜川"}, {"id": "191", "name": "桜橋跡（桜川・八町堀）", "latitude": "35.6738232", "longitude": "139.7742181", "river": "桜川"}, {"id": "192", "name": "中央区立郷土資料館", "latitude": "35.6736459", "longitude": "139.7752714", "river": "桜川"}, {"id": "193", "name": "中ノ橋跡", "latitude": "35.67369444", "longitude": "139.7764444", "river": "桜川"}, {"id": "194", "name": "八丁堀橋", "latitude": "35.67363889", "longitude": "139.7785833", "river": "桜川"}, {"id": "195", "name": "東京都下水道局 桜橋第二ポンプ所", "latitude": "35.6735027", "longitude": "139.7797855", "river": "桜川"}, {"id": "196", "name": "稲荷橋跡", "latitude": "35.6736285", "longitude": "139.7801684", "river": "桜川"}, {"id": "197", "name": "佃島砲台跡", "latitude": "35.6659459", "longitude": "139.7826273", "river": "佃川"}, {"id": "198", "name": "佃公園 佃堀広場", "latitude": "35.6665838", "longitude": "139.7829594", "river": "佃川"}, {"id": "199", "name": "佃小橋", "latitude": "35.6672566", "longitude": "139.783354", "river": "佃川"}, {"id": "200", "name": "佃住吉神社", "latitude": "35.6679919", "longitude": "139.7833677", "river": "佃川"}, {"id": "201", "name": "住吉小橋", "latitude": "35.6685706", "longitude": "139.7826486", "river": "佃川"}, {"id": "202", "name": "石川島灯台", "latitude": "35.6688108", "longitude": "139.7827572", "river": "佃川"}, {"id": "203", "name": "初見橋跡", "latitude": "35.6644245", "longitude": "139.7848068", "river": "佃川"}, {"id": "204", "name": "佃まちかど展示館", "latitude": "35.6678296", "longitude": "139.7822271", "river": "佃川"}, {"id": "205", "name": "佃島渡船場跡之碑", "latitude": "35.6678695", "longitude": "139.7822268", "river": "佃川"}, {"id": "206", "name": "新月橋跡", "latitude": "35.6652686", "longitude": "139.7838715", "river": "佃川"}, {"id": "207", "name": "佃橋跡", "latitude": "35.6661315", "longitude": "139.7828952", "river": "佃川"}, {"id": "208", "name": "兜神社", "latitude": "35.6834969", "longitude": "139.7785383", "river": "楓川"}, {"id": "209", "name": "東京証券取引所", "latitude": "35.6826955", "longitude": "139.7788027", "river": "楓川"}, {"id": "210", "name": "日本橋ダイヤビルディング", "latitude": "35.6836944", "longitude": "139.7774786", "river": "楓川"}, {"id": "211", "name": "海運橋親柱", "latitude": "35.6823673", "longitude": "139.7772722", "river": "楓川"}, {"id": "212", "name": "第一国立銀行跡・銀行発祥の地", "latitude": "35.6820427", "longitude": "139.778003", "river": "楓川"}, {"id": "213", "name": "千代田橋", "latitude": "35.6813182", "longitude": "139.7768255", "river": "楓川"}, {"id": "214", "name": "久安橋", "latitude": "35.6778876", "longitude": "139.7749462", "river": "楓川"}, {"id": "215", "name": "宝橋", "latitude": "35.6766013", "longitude": "139.7738152", "river": "楓川"}, {"id": "216", "name": "宝地蔵尊", "latitude": "35.676738", "longitude": "139.7738921", "river": "楓川"}, {"id": "217", "name": "松幡橋", "latitude": "35.675444", "longitude": "139.7732602", "river": "楓川"}, {"id": "218", "name": "紅葉川高校跡地", "latitude": "35.680622", "longitude": "139.7770643", "river": "楓川"}, {"id": "219", "name": "日本橋郵便局 郵便発祥の地", "latitude": "35.6835251", "longitude": "139.7771902", "river": "楓川"}, {"id": "220", "name": "兜橋跡", "latitude": "35.6834818", "longitude": "139.7782435", "river": "楓川"}, {"id": "221", "name": "海賊橋跡", "latitude": "35.6822186", "longitude": "139.7774099", "river": "楓川"}, {"id": "222", "name": "丹波国綾部藩上屋敷跡", "latitude": "35.6801723", "longitude": "139.7769301", "river": "楓川"}, {"id": "223", "name": "新場橋", "latitude": "35.6794224", "longitude": "139.775751", "river": "楓川"}]